$GPGGA,193501.094,5103.9137,N,11405.3024,W,1,04,2.61,1070.7,M,-17.5,M,,*6D
$GPGSA,A,2,26,22,03,23,,,,,,,,,2.79,2.61,1.00*0D
$GPGSV,3,1,11,03,68,217,40,23,55,284,42,22,53,184,41,26,41,117,37*73
$GPGSV,3,2,11,51,31,171,,14,20,093,25,06,17,319,,09,16,281,23*7C
$GPGSV,3,3,11,29,02,053,,31,,,29,16,,,40*4C
$GPRMC,193501.094,A,5103.9137,N,11405.3024,W,2.51,176.15,160217,,,A*70
$GPZDA,193501.094,16,02,2017,,*55
$GPGGA,193503.000,5103.9099,N,11405.3047,W,1,04,2.61,1067.9,M,-17.5,M,,*6A
$GPGSA,A,2,26,22,03,23,,,,,,,,,2.79,2.61,1.00*0D
$GPRMC,193503.000,A,5103.9099,N,11405.3047,W,2.74,179.37,160217,,,A*77
$GPZDA,193503.000,16,02,2017,,*5A
$GPGGA,193504.000,5103.9081,N,11405.3053,W,1,04,2.61,1069.5,M,-17.5,M,,*63
$GPGSA,A,2,26,22,03,23,,,,,,,,,2.79,2.61,1.00*0D
$GPRMC,193504.000,A,5103.9081,N,11405.3053,W,2.31,172.95,160217,,,A*7E
$GPZDA,193504.000,16,02,2017,,*5D
$GPGGA,193505.000,5103.9078,N,11405.3048,W,1,04,2.61,1072.0,M,-17.5,M,,*61
$GPGSA,A,2,26,22,03,23,,,,,,,,,2.79,2.61,1.00*0D
$GPRMC,193505.000,A,5103.9078,N,11405.3048,W,2.28,174.63,160217,,,A*74
$GPZDA,193505.000,16,02,2017,,*5C
$GPGGA,193506.000,5103.9068,N,11405.3052,W,1,04,2.61,1069.9,M,-17.5,M,,*6B
$GPGSA,A,3,26,22,03,23,,,,,,,,,2.79,2.61,1.00*0C
$GPRMC,193506.000,A,5103.9068,N,11405.3052,W,2.25,177.39,160217,,,A*7C
$GPZDA,193506.000,16,02,2017,,*5F
$GPGGA,193507.000,5103.9058,N,11405.3063,W,1,04,2.61,1067.2,M,-17.5,M,,*6E
$GPGSA,A,3,26,22,03,23,,,,,,,,,2.79,2.61,1.00*0C
$GPGSV,3,1,11,03,68,217,43,23,55,284,35,22,53,184,42,26,41,117,37*73
$GPGSV,3,2,11,51,31,171,38,14,20,093,21,06,17,319,,09,16,281,22*72
$GPGSV,3,3,11,29,02,053,,31,,,30,16,,,40*44
$GPRMC,193507.000,A,5103.9058,N,11405.3063,W,2.02,182.87,160217,,,A*76
$GPZDA,193507.000,16,02,2017,,*5E
$GPGGA,193508.000,5103.9055,N,11405.3068,W,1,04,2.61,1065.4,M,-17.5,M,,*63
$GPGSA,A,3,26,22,03,23,,,,,,,,,2.79,2.61,1.00*0C
$GPRMC,193508.000,A,5103.9055,N,11405.3068,W,1.40,187.25,160217,,,A*77
$GPZDA,193508.000,16,02,2017,,*51
$GPGGA,193509.000,5103.9058,N,11405.3070,W,1,04,2.60,1064.2,M,-17.5,M,,*60
$GPGSA,A,3,26,22,03,23,,,,,,,,,2.79,2.60,1.00*0D
$GPRMC,193509.000,A,5103.9058,N,11405.3070,W,1.08,208.71,160217,,,A*7B
$GPZDA,193509.000,16,02,2017,,*50
$GPGGA,193510.000,5103.9057,N,11405.3072,W,1,04,2.60,1061.9,M,-17.5,M,,*6B
$GPGSA,A,3,26,22,03,23,,,,,,,,,2.79,2.60,1.00*0D
$GPRMC,193510.000,A,5103.9057,N,11405.3072,W,0.87,208.89,160217,,,A*7F
$GPZDA,193510.000,16,02,2017,,*58
$GPGGA,193511.000,5103.9057,N,11405.3072,W,1,04,2.60,1059.0,M,-17.5,M,,*68
$GPGSA,A,3,26,22,03,23,,,,,,,,,2.79,2.60,1.00*0D
$GPRMC,193511.000,A,5103.9057,N,11405.3072,W,0.86,222.19,160217,,,A*7E
$GPZDA,193511.000,16,02,2017,,*59
$GPGGA,193512.000,5103.9058,N,11405.3071,W,1,04,2.60,1056.6,M,-17.5,M,,*6E
$GPGSA,A,3,26,22,03,23,,,,,,,,,2.78,2.60,1.00*0C
$GPGSV,3,1,11,03,68,217,44,23,55,284,39,22,53,184,44,26,41,117,31*78
$GPGSV,3,2,11,51,31,171,40,14,20,093,18,06,17,319,30,09,16,281,18*7D
$GPGSV,3,3,11,29,02,053,,31,,,33,16,,,42*45
$GPRMC,193512.000,A,5103.9058,N,11405.3071,W,0.75,211.26,160217,,,A*71
$GPZDA,193512.000,16,02,2017,,*5A
$GPGGA,193513.000,5103.9065,N,11405.3065,W,1,04,2.60,1055.8,M,-17.5,M,,*69
$GPGSA,A,3,26,22,03,23,,,,,,,,,2.79,2.60,1.00*0D
$GPRMC,193513.000,A,5103.9065,N,11405.3065,W,0.38,206.77,160217,,,A*70
$GPZDA,193513.000,16,02,2017,,*5B
$GPGGA,193514.000,5103.9066,N,11405.3063,W,1,04,2.60,1055.0,M,-17.5,M,,*63
$GPGSA,A,3,26,22,03,23,,,,,,,,,2.78,2.60,1.00*0C
$GPRMC,193514.000,A,5103.9066,N,11405.3063,W,0.35,250.57,160217,,,A*7E
$GPZDA,193514.000,16,02,2017,,*5C
$GPGGA,193515.000,5103.9066,N,11405.3063,W,1,04,2.60,1053.8,M,-17.5,M,,*6C
$GPGSA,A,3,26,22,03,23,,,,,,,,,2.78,2.60,1.00*0C
$GPRMC,193515.000,A,5103.9066,N,11405.3063,W,0.27,251.55,160217,,,A*7F
$GPZDA,193515.000,16,02,2017,,*5D
$GPGGA,193516.000,5103.9066,N,11405.3060,W,1,04,2.60,1053.1,M,-17.5,M,,*65
$GPGSA,A,3,26,22,03,23,,,,,,,,,2.78,2.60,1.00*0C
$GPRMC,193516.000,A,5103.9066,N,11405.3060,W,0.16,226.69,160217,,,A*72
$GPZDA,193516.000,16,02,2017,,*5E
$GPGGA,193517.000,5103.9069,N,11405.3055,W,1,04,2.60,1053.2,M,-17.5,M,,*6E
$GPGSA,A,3,26,22,03,23,,,,,,,,,2.78,2.60,1.00*0C
$GPGSV,3,1,11,03,68,217,44,23,55,284,40,22,53,184,43,26,41,117,36*76
$GPGSV,3,2,11,51,31,171,37,14,20,093,19,06,17,319,30,09,16,281,17*73
$GPGSV,3,3,11,29,02,053,,31,,,36,16,,,41*43
$GPRMC,193517.000,A,5103.9069,N,11405.3055,W,0.06,127.61,160217,,,A*71
$GPZDA,193517.000,16,02,2017,,*5F
$GPGGA,193518.000,5103.9069,N,11405.3055,W,1,04,2.60,1052.4,M,-17.5,M,,*66
$GPGSA,A,3,26,22,03,23,,,,,,,,,2.78,2.60,1.00*0C
$GPRMC,193518.000,A,5103.9069,N,11405.3055,W,0.14,112.75,160217,,,A*7E
$GPZDA,193518.000,16,02,2017,,*50
$GPGGA,193519.000,5103.9068,N,11405.3057,W,1,04,2.60,1051.4,M,-17.5,M,,*67
$GPGSA,A,3,26,22,03,23,,,,,,,,,2.78,2.60,1.00*0C
$GPRMC,193519.000,A,5103.9068,N,11405.3057,W,0.23,33.37,160217,,,A*4C
$GPZDA,193519.000,16,02,2017,,*51
$GPGGA,193520.000,5103.9067,N,11405.3061,W,1,04,2.60,1050.7,M,-17.5,M,,*65
$GPGSA,A,3,26,22,03,23,,,,,,,,,2.78,2.60,1.00*0C
$GPRMC,193520.000,A,5103.9067,N,11405.3061,W,0.32,5.01,160217,,,A*7C
$GPZDA,193520.000,16,02,2017,,*5B
$GPGGA,193521.000,5103.9067,N,11405.3063,W,1,04,3.63,1051.0,M,-17.5,M,,*62
$GPGSA,A,3,26,22,03,23,,,,,,,,,10.82,3.63,10.19*00
$GPRMC,193521.000,A,5103.9067,N,11405.3063,W,0.13,303.20,160217,,,A*7A
$GPZDA,193521.000,16,02,2017,,*5A
$GPGGA,193522.000,5103.9064,N,11405.3067,W,1,04,2.59,1050.0,M,-17.5,M,,*6F
$GPGSA,A,3,26,22,03,23,,,,,,,,,2.78,2.59,1.00*06
$GPGSV,3,1,11,03,68,217,43,23,55,284,36,22,53,184,44,26,41,117,31*70
$GPGSV,3,2,11,51,31,171,33,14,20,093,17,06,17,319,18,09,16,281,21*76
$GPGSV,3,3,11,29,02,053,,31,,,37,16,,,40*43
$GPRMC,193522.000,A,5103.9064,N,11405.3067,W,0.10,241.03,160217,,,A*7B
$GPZDA,193522.000,16,02,2017,,*59
$GPGGA,193523.000,5103.9062,N,11405.3068,W,1,04,2.59,1049.0,M,-17.5,M,,*6F
$GPGSA,A,3,26,22,03,23,,,,,,,,,2.78,2.59,1.00*06
$GPRMC,193523.000,A,5103.9062,N,11405.3068,W,0.14,168.15,160217,,,A*78
$GPZDA,193523.000,16,02,2017,,*58
$GPGGA,193524.000,5103.9062,N,11405.3068,W,1,04,2.59,1048.7,M,-17.5,M,,*6E
$GPGSA,A,3,26,22,03,23,,,,,,,,,2.78,2.59,1.00*06
$GPRMC,193524.000,A,5103.9062,N,11405.3068,W,0.10,173.98,160217,,,A*74
$GPZDA,193524.000,16,02,2017,,*5F
$GPGGA,193525.000,5103.9072,N,11405.3055,W,1,05,2.35,1060.4,M,-17.5,M,,*62
$GPGSA,A,3,26,16,22,03,23,,,,,,,,2.54,2.35,0.97*0A
$GPRMC,193525.000,A,5103.9072,N,11405.3055,W,0.15,262.47,160217,,,A*7E
$GPZDA,193525.000,16,02,2017,,*5E
$GPGGA,193526.000,5103.9076,N,11405.3050,W,1,05,2.34,1066.7,M,-17.5,M,,*64
$GPGSA,A,3,26,16,22,03,23,,,,,,,,2.54,2.34,0.97*0B
$GPRMC,193526.000,A,5103.9076,N,11405.3050,W,0.30,281.29,160217,,,A*7E
$GPZDA,193526.000,16,02,2017,,*5D
$GPGGA,193527.000,5103.9078,N,11405.3047,W,1,05,2.34,1070.5,M,-17.5,M,,*68
$GPGSA,A,3,26,16,22,03,23,,,,,,,,2.54,2.34,0.97*0B
$GPGSV,3,1,11,03,68,217,42,23,55,284,34,22,53,184,44,26,41,117,27*74
$GPGSV,3,2,11,51,31,171,35,16,25,148,40,14,20,093,18,06,17,319,20*7B
$GPGSV,3,3,11,09,16,281,23,29,02,053,,31,,,35*76
$GPRMC,193527.000,A,5103.9078,N,11405.3047,W,0.23,260.10,160217,,,A*70
$GPZDA,193527.000,16,02,2017,,*5C
$GPGGA,193528.000,5103.9081,N,11405.3044,W,1,05,2.34,1072.9,M,-17.5,M,,*6C
$GPGSA,A,3,26,16,22,03,23,,,,,,,,2.54,2.34,0.97*0B
$GPRMC,193528.000,A,5103.9081,N,11405.3044,W,0.16,269.37,160217,,,A*70
$GPZDA,193528.000,16,02,2017,,*53
$GPGGA,193529.000,5103.9083,N,11405.3041,W,1,05,2.34,1074.3,M,-17.5,M,,*66
$GPGSA,A,3,26,16,22,03,23,,,,,,,,2.54,2.34,0.97*0B
$GPRMC,193529.000,A,5103.9083,N,11405.3041,W,0.15,355.81,160217,,,A*76
$GPZDA,193529.000,16,02,2017,,*52
$GPGGA,193530.000,5103.9085,N,11405.3040,W,1,05,2.54,1075.4,M,-17.5,M,,*69
$GPGSA,A,3,26,16,22,03,23,,,,,,,,4.74,2.54,4.00*03
$GPRMC,193530.000,A,5103.9085,N,11405.3040,W,0.24,3.13,160217,,,A*70
$GPZDA,193530.000,16,02,2017,,*5A
$GPGGA,193531.000,5103.9086,N,11405.3040,W,1,05,2.54,1076.2,M,-17.5,M,,*6E
$GPGSA,A,3,26,16,22,03,23,,,,,,,,4.74,2.54,4.00*03
$GPRMC,193531.000,A,5103.9086,N,11405.3040,W,0.11,357.87,160217,,,A*7B
$GPZDA,193531.000,16,02,2017,,*5B
$GPGGA,193532.000,5103.9087,N,11405.3042,W,1,05,2.55,1076.7,M,-17.5,M,,*6A
$GPGSA,A,3,26,16,22,03,23,,,,,,,,4.74,2.55,4.00*02
$GPGSV,3,1,11,03,68,217,41,23,55,284,36,22,53,184,43,26,41,117,25*70
$GPGSV,3,2,11,51,31,171,35,16,25,148,40,14,20,093,22,06,17,319,20*72
$GPGSV,3,3,11,09,16,281,26,29,02,053,,31,,,34*72
$GPRMC,193532.000,A,5103.9087,N,11405.3042,W,0.15,236.65,160217,,,A*75
$GPZDA,193532.000,16,02,2017,,*58
$GPGGA,193533.000,5103.9085,N,11405.3048,W,1,05,2.34,1076.7,M,-17.5,M,,*64
$GPGSA,A,3,26,16,22,03,23,,,,,,,,2.53,2.34,0.97*0C
$GPRMC,193533.000,A,5103.9085,N,11405.3048,W,0.96,263.11,160217,,,A*74
$GPZDA,193533.000,16,02,2017,,*59
$GPGGA,193534.000,5103.9085,N,11405.3054,W,1,05,2.34,1076.4,M,-17.5,M,,*6D
$GPGSA,A,3,26,16,22,03,23,,,,,,,,2.54,2.34,0.97*0B
$GPRMC,193534.000,A,5103.9085,N,11405.3054,W,0.67,334.56,160217,,,A*70
$GPZDA,193534.000,16,02,2017,,*5E
$GPGGA,193535.000,5103.9087,N,11405.3057,W,1,05,2.34,1076.2,M,-17.5,M,,*6B
$GPGSA,A,3,26,16,22,03,23,,,,,,,,2.53,2.34,0.97*0C
$GPRMC,193535.000,A,5103.9087,N,11405.3057,W,1.49,354.66,160217,,,A*78
$GPZDA,193535.000,16,02,2017,,*5F
$GPGGA,193536.000,5103.9089,N,11405.3063,W,1,05,2.54,1075.9,M,-17.5,M,,*6F
$GPGSA,A,3,26,16,22,03,23,,,,,,,,4.75,2.54,4.01*03
$GPRMC,193536.000,A,5103.9089,N,11405.3063,W,1.48,346.20,160217,,,A*72
$GPZDA,193536.000,16,02,2017,,*5C
$GPGGA,193537.000,5103.9092,N,11405.3068,W,1,05,2.54,1075.5,M,-17.5,M,,*63
$GPGSA,A,3,26,16,22,03,23,,,,,,,,4.75,2.54,4.01*03
$GPGSV,3,1,11,03,68,217,41,23,55,284,44,22,53,184,36,26,42,117,36*76
$GPGSV,3,2,11,51,31,171,38,16,25,148,24,14,20,093,26,06,17,319,27*7E
$GPGSV,3,3,11,09,16,281,28,29,02,053,,31,,,45*7A
$GPRMC,193537.000,A,5103.9092,N,11405.3068,W,1.62,346.77,160217,,,A*78
$GPZDA,193537.000,16,02,2017,,*5D
$GPGGA,193538.000,5103.9095,N,11405.3074,W,1,05,2.54,1075.4,M,-17.5,M,,*67
$GPGSA,A,3,26,16,22,03,23,,,,,,,,4.75,2.54,4.01*03
$GPRMC,193538.000,A,5103.9095,N,11405.3074,W,1.70,340.82,160217,,,A*72
$GPZDA,193538.000,16,02,2017,,*52
$GPGGA,193539.000,5103.9100,N,11405.3079,W,1,05,2.34,1074.9,M,-17.5,M,,*6C
$GPGSA,A,3,26,16,22,03,23,,,,,,,,2.53,2.34,0.97*0C
$GPRMC,193539.000,A,5103.9100,N,11405.3079,W,1.70,343.17,160217,,,A*7C
$GPZDA,193539.000,16,02,2017,,*53
$GPGGA,193540.000,5103.9102,N,11405.3084,W,1,05,2.34,1074.9,M,-17.5,M,,*62
$GPGSA,A,3,26,16,22,03,23,,,,,,,,2.53,2.34,0.97*0C
$GPRMC,193540.000,A,5103.9102,N,11405.3084,W,1.48,346.34,160217,,,A*7D
$GPZDA,193540.000,16,02,2017,,*5D
$GPGGA,193541.000,5103.9103,N,11405.3089,W,1,05,2.54,1074.9,M,-17.5,M,,*69
$GPGSA,A,3,26,16,22,03,23,,,,,,,,4.75,2.54,4.02*00
$GPRMC,193541.000,A,5103.9103,N,11405.3089,W,1.14,340.78,160217,,,A*77
$GPZDA,193541.000,16,02,2017,,*5C
$GPGGA,193542.000,5103.9105,N,11405.3096,W,1,05,2.34,1075.4,M,-17.5,M,,*68
$GPGSA,A,3,26,16,22,03,23,,,,,,,,2.53,2.34,0.97*0C
$GPGSV,3,1,11,03,68,217,44,23,55,284,42,22,53,184,43,26,42,117,28*78
$GPGSV,3,2,11,51,31,171,39,16,25,148,39,14,20,093,25,06,17,319,25*72
$GPGSV,3,3,11,09,16,281,29,29,02,053,,31,,,46*78
$GPRMC,193542.000,A,5103.9105,N,11405.3096,W,1.24,322.97,160217,,,A*7A
$GPZDA,193542.000,16,02,2017,,*5F
$GPGGA,193543.000,5103.9106,N,11405.3101,W,1,05,2.34,1075.8,M,-17.5,M,,*69
$GPGSA,A,3,26,16,22,03,23,,,,,,,,2.53,2.34,0.97*0C
$GPRMC,193543.000,A,5103.9106,N,11405.3101,W,1.25,324.71,160217,,,A*78
$GPZDA,193543.000,16,02,2017,,*5E
$GPGGA,193544.000,5103.9108,N,11405.3107,W,1,05,2.33,1076.0,M,-17.5,M,,*6A
$GPGSA,A,3,26,16,22,03,23,,,,,,,,2.53,2.33,0.97*0B
$GPRMC,193544.000,A,5103.9108,N,11405.3107,W,1.34,317.02,160217,,,A*73
$GPZDA,193544.000,16,02,2017,,*59
$GPGGA,193545.000,5103.9107,N,11405.3114,W,1,05,2.33,1076.2,M,-17.5,M,,*64
$GPGSA,A,3,26,16,22,03,23,,,,,,,,2.53,2.33,0.97*0B
$GPRMC,193545.000,A,5103.9107,N,11405.3114,W,1.12,310.60,160217,,,A*78
$GPZDA,193545.000,16,02,2017,,*58
$GPGGA,193546.000,5103.9105,N,11405.3128,W,1,05,2.33,1076.0,M,-17.5,M,,*68
$GPGSA,A,3,26,16,22,03,23,,,,,,,,2.53,2.33,0.97*0B
$GPRMC,193546.000,A,5103.9105,N,11405.3128,W,1.40,294.76,160217,,,A*7B
$GPZDA,193546.000,16,02,2017,,*5B
$GPGGA,193547.000,5103.9105,N,11405.3137,W,1,05,2.33,1076.3,M,-17.5,M,,*64
$GPGSA,A,3,26,16,22,03,23,,,,,,,,2.53,2.33,0.97*0B
$GPGSV,3,1,11,03,68,216,25,23,55,284,22,22,53,184,34,26,42,117,34*75
$GPGSV,3,2,11,51,31,171,36,16,25,148,28,14,20,093,24,06,17,319,22*7B
$GPGSV,3,3,11,09,16,281,29,29,02,053,,31,,,44*7A
$GPRMC,193547.000,A,5103.9105,N,11405.3137,W,1.39,288.52,160217,,,A*71
$GPZDA,193547.000,16,02,2017,,*5A
$GPGGA,193548.000,5103.9106,N,11405.3142,W,1,05,2.33,1076.5,M,-17.5,M,,*6C
$GPGSA,A,3,26,16,22,03,23,,,,,,,,2.53,2.33,0.97*0B
$GPRMC,193548.000,A,5103.9106,N,11405.3142,W,1.32,291.60,160217,,,A*7D
$GPZDA,193548.000,16,02,2017,,*55
$GPGGA,193549.000,5103.9107,N,11405.3148,W,1,06,1.36,1077.5,M,-17.5,M,,*62
$GPGSA,A,3,31,26,16,22,03,23,,,,,,,1.67,1.36,0.97*0B
$GPRMC,193549.000,A,5103.9107,N,11405.3148,W,1.89,263.71,160217,,,A*7A
$GPZDA,193549.000,16,02,2017,,*54
$GPGGA,193550.000,5103.9108,N,11405.3152,W,1,06,1.36,1078.0,M,-17.5,M,,*64
$GPGSA,A,3,31,26,16,22,03,23,,,,,,,1.67,1.36,0.97*0B
$GPRMC,193550.000,A,5103.9108,N,11405.3152,W,1.75,262.71,160217,,,A*74
$GPZDA,193550.000,16,02,2017,,*5C
$GPGGA,193551.000,5103.9110,N,11405.3158,W,1,06,1.36,1078.7,M,-17.5,M,,*61
$GPGSA,A,3,31,26,16,22,03,23,,,,,,,1.67,1.36,0.97*0B
$GPRMC,193551.000,A,5103.9110,N,11405.3158,W,1.63,261.90,160217,,,A*7D
$GPZDA,193551.000,16,02,2017,,*5D
$GPGGA,193552.000,5103.9111,N,11405.3160,W,1,06,1.36,1078.8,M,-17.5,M,,*67
$GPGSA,A,3,31,26,16,22,03,23,,,,,,,1.67,1.36,0.97*0B
$GPGSV,3,1,11,03,68,216,21,23,55,284,21,22,53,184,21,26,42,117,31*73
$GPGSV,3,2,11,31,40,058,31,51,31,171,26,16,25,148,27,14,20,093,25*76
$GPGSV,3,3,11,06,17,319,20,09,16,282,35,29,02,053,*4F
$GPRMC,193552.000,A,5103.9111,N,11405.3160,W,1.31,266.08,160217,,,A*75
$GPZDA,193552.000,16,02,2017,,*5E
$GPGGA,193553.000,5103.9113,N,11405.3166,W,1,06,1.36,1079.0,M,-17.5,M,,*6B
$GPGSA,A,3,31,26,16,22,03,23,,,,,,,1.67,1.36,0.97*0B
$GPRMC,193553.000,A,5103.9113,N,11405.3166,W,2.21,299.74,160217,,,A*79
$GPZDA,193553.000,16,02,2017,,*5F
$GPGGA,193554.000,5103.9116,N,11405.3173,W,1,06,1.36,1079.1,M,-17.5,M,,*6C
$GPGSA,A,3,31,26,16,22,03,23,,,,,,,1.67,1.36,0.97*0B
$GPRMC,193554.000,A,5103.9116,N,11405.3173,W,1.97,299.85,160217,,,A*7F
$GPZDA,193554.000,16,02,2017,,*58
$GPGGA,193555.000,5103.9118,N,11405.3176,W,1,06,1.36,1079.1,M,-17.5,M,,*66
$GPGSA,A,3,31,26,16,22,03,23,,,,,,,1.67,1.36,0.97*0B
$GPRMC,193555.000,A,5103.9118,N,11405.3176,W,1.00,309.00,160217,,,A*7E
$GPZDA,193555.000,16,02,2017,,*59
$GPGGA,193556.000,5103.9119,N,11405.3175,W,1,06,1.36,1079.1,M,-17.5,M,,*67
$GPGSA,A,3,31,26,16,22,03,23,,,,,,,1.67,1.36,0.97*0B
$GPRMC,193556.000,A,5103.9119,N,11405.3175,W,0.69,328.93,160217,,,A*78
$GPZDA,193556.000,16,02,2017,,*5A
$GPGGA,193557.000,5103.9120,N,11405.3174,W,1,06,1.36,1079.2,M,-17.5,M,,*6E
$GPGSA,A,3,31,26,16,22,03,23,,,,,,,1.67,1.36,0.97*0B
$GPGSV,3,1,11,03,68,216,17,23,55,284,18,22,53,184,18,26,42,117,20*76
$GPGSV,3,2,11,31,40,058,21,51,31,171,23,16,25,148,20,14,20,093,22*72
$GPGSV,3,3,11,06,17,319,18,09,16,282,28,29,02,053,*48
$GPRMC,193557.000,A,5103.9120,N,11405.3174,W,0.52,325.75,160217,,,A*7F
$GPZDA,193557.000,16,02,2017,,*5B
$GPGGA,193558.000,5103.9120,N,11405.3174,W,1,06,1.36,1079.2,M,-17.5,M,,*61
$GPGSA,A,3,31,26,16,22,03,23,,,,,,,1.67,1.36,0.97*0B
$GPRMC,193558.000,A,5103.9120,N,11405.3174,W,0.16,317.24,160217,,,A*75
$GPZDA,193558.000,16,02,2017,,*54
$GPGGA,193559.000,5103.9121,N,11405.3173,W,1,06,1.36,1079.2,M,-17.5,M,,*66
$GPGSA,A,3,31,26,16,22,03,23,,,,,,,1.67,1.36,0.97*0B
$GPRMC,193559.000,A,5103.9121,N,11405.3173,W,0.12,296.68,160217,,,A*76
$GPZDA,193559.000,16,02,2017,,*55
$GPGGA,193600.000,5103.9121,N,11405.3169,W,1,06,1.36,1079.1,M,-17.5,M,,*61
$GPGSA,A,3,31,26,16,22,03,23,,,,,,,1.67,1.36,0.97*0B
$GPRMC,193600.000,A,5103.9121,N,11405.3169,W,0.11,298.54,160217,,,A*70
$GPZDA,193600.000,16,02,2017,,*5A
$GPGGA,193601.000,5103.9122,N,11405.3169,W,1,06,1.36,1079.2,M,-17.5,M,,*60
$GPGSA,A,3,31,26,16,22,03,23,,,,,,,1.67,1.36,0.97*0B
$GPRMC,193601.000,A,5103.9122,N,11405.3169,W,0.74,26.99,160217,,,A*47
$GPZDA,193601.000,16,02,2017,,*5B
$GPGGA,193602.000,5103.9125,N,11405.3156,W,1,06,1.36,1079.2,M,-17.5,M,,*68
$GPGSA,A,3,31,26,16,22,03,23,,,,,,,1.67,1.36,0.97*0B
$GPGSV,3,1,11,03,68,216,13,23,55,284,14,22,53,184,17,26,42,117,17*75
$GPGSV,3,2,11,31,40,058,18,51,31,171,23,16,26,147,18,14,20,093,17*79
$GPGSV,3,3,11,06,17,319,16,09,16,282,20,29,02,053,*4E
$GPRMC,193602.000,A,5103.9125,N,11405.3156,W,1.52,34.86,160217,,,A*47
$GPZDA,193602.000,16,02,2017,,*58
$GPGGA,193603.000,5103.9131,N,11405.3141,W,1,06,1.36,1079.1,M,-17.5,M,,*69
$GPGSA,A,3,31,26,16,22,03,23,,,,,,,1.67,1.36,0.97*0B
$GPRMC,193603.000,A,5103.9131,N,11405.3141,W,1.96,45.51,160217,,,A*41
$GPZDA,193603.000,16,02,2017,,*59
$GPGGA,193604.000,5103.9131,N,11405.3133,W,1,06,1.36,1079.1,M,-17.5,M,,*6B
$GPGSA,A,3,31,26,16,22,03,23,,,,,,,1.67,1.36,0.97*0B
$GPRMC,193604.000,A,5103.9131,N,11405.3133,W,1.85,61.49,160217,,,A*4E
$GPZDA,193604.000,16,02,2017,,*5E
$GPGGA,193605.000,5103.9131,N,11405.3123,W,1,06,1.36,1079.1,M,-17.5,M,,*6B
$GPGSA,A,3,31,26,16,22,03,23,,,,,,,1.67,1.36,0.97*0B
$GPRMC,193605.000,A,5103.9131,N,11405.3123,W,2.13,69.62,160217,,,A*43
$GPZDA,193605.000,16,02,2017,,*5F
$GPGGA,193606.000,5103.9132,N,11405.3112,W,1,06,1.36,1079.1,M,-17.5,M,,*69
$GPGSA,A,3,31,26,16,22,03,23,,,,,,,1.67,1.36,0.97*0B
$GPRMC,193606.000,A,5103.9132,N,11405.3112,W,2.33,74.88,160217,,,A*4B
$GPZDA,193606.000,16,02,2017,,*5C
$GPGGA,193607.000,5103.9131,N,11405.3100,W,1,06,1.36,1079.1,M,-17.5,M,,*68
$GPGSA,A,3,31,26,16,22,03,23,,,,,,,1.67,1.36,0.97*0B
$GPGSV,3,1,11,03,68,216,13,23,55,285,13,22,53,184,10,26,42,117,17*74
$GPGSV,3,2,11,31,40,058,18,51,31,171,,16,26,147,16,14,20,093,17*76
$GPGSV,3,3,11,06,17,319,15,09,16,282,17,29,02,053,*49
$GPRMC,193607.000,A,5103.9131,N,11405.3100,W,2.38,80.74,160217,,,A*49
$GPZDA,193607.000,16,02,2017,,*5D
$GPGGA,193608.000,5103.9125,N,11405.3089,W,1,06,1.36,1079.1,M,-17.5,M,,*62
$GPGSA,A,3,31,26,16,22,03,23,,,,,,,1.67,1.36,0.97*0B
$GPRMC,193608.000,A,5103.9125,N,11405.3089,W,2.60,94.28,160217,,,A*42
$GPZDA,193608.000,16,02,2017,,*52
$GPGGA,193609.000,5103.9120,N,11405.3066,W,1,06,1.36,1079.0,M,-17.5,M,,*66
$GPGSA,A,3,31,26,16,22,03,23,,,,,,,1.67,1.36,0.97*0B
$GPRMC,193609.000,A,5103.9120,N,11405.3066,W,3.57,97.90,160217,,,A*42
$GPZDA,193609.000,16,02,2017,,*53
$GPGGA,193610.000,5103.9115,N,11405.3040,W,1,06,1.36,1079.0,M,-17.5,M,,*6C
$GPGSA,A,3,31,26,16,22,03,23,,,,,,,1.67,1.36,0.97*0B
$GPRMC,193610.000,A,5103.9115,N,11405.3040,W,4.41,100.43,160217,,,A*79
$GPZDA,193610.000,16,02,2017,,*5B
$GPGGA,193611.000,5103.9107,N,11405.3016,W,1,06,1.36,1079.0,M,-17.5,M,,*6D
$GPGSA,A,3,31,26,16,22,03,23,,,,,,,1.67,1.36,0.97*0B
$GPRMC,193611.000,A,5103.9107,N,11405.3016,W,5.01,104.81,160217,,,A*77
$GPZDA,193611.000,16,02,2017,,*5A
$GPGGA,193612.000,5103.9111,N,11405.2983,W,1,06,1.36,1079.0,M,-17.5,M,,*6D
$GPGSA,A,3,31,26,16,22,03,23,,,,,,,1.67,1.36,0.97*0B
$GPGSV,3,1,11,03,68,216,16,23,55,285,14,22,53,184,12,26,42,116,18*7A
$GPGSV,3,2,11,31,40,058,25,51,31,171,,16,26,147,19,14,20,093,18*78
$GPGSV,3,3,11,06,17,319,14,09,16,282,16,29,02,052,*48
$GPRMC,193612.000,A,5103.9111,N,11405.2983,W,5.72,98.00,160217,,,A*4E
$GPZDA,193612.000,16,02,2017,,*59
$GPGGA,193613.000,5103.9113,N,11405.2955,W,1,06,1.36,1079.0,M,-17.5,M,,*65
$GPGSA,A,3,31,26,16,22,03,23,,,,,,,1.67,1.36,0.97*0B
$GPRMC,193613.000,A,5103.9113,N,11405.2955,W,5.81,96.24,160217,,,A*42
$GPZDA,193613.000,16,02,2017,,*58
$GPGGA,193614.000,5103.9106,N,11405.2937,W,1,06,1.36,1079.0,M,-17.5,M,,*62
$GPGSA,A,3,31,26,16,22,03,23,,,,,,,1.67,1.36,0.97*0B
$GPRMC,193614.000,A,5103.9106,N,11405.2937,W,5.85,97.92,160217,,,A*4D
$GPZDA,193614.000,16,02,2017,,*5F
$GPGGA,193615.000,5103.9107,N,11405.2945,W,1,06,1.36,1078.9,M,-17.5,M,,*6F
$GPGSA,A,3,31,26,16,22,03,23,,,,,,,1.67,1.36,0.97*0B
$GPRMC,193615.000,A,5103.9107,N,11405.2945,W,5.23,99.75,160217,,,A*43
$GPZDA,193615.000,16,02,2017,,*5E
$GPGGA,193616.000,5103.9119,N,11405.2976,W,1,06,1.36,1078.9,M,-17.5,M,,*63
$GPGSA,A,3,31,26,16,22,03,23,,,,,,,1.67,1.36,0.97*0B
$GPRMC,193616.000,A,5103.9119,N,11405.2976,W,4.42,83.84,160217,,,A*4C
$GPZDA,193616.000,16,02,2017,,*5D
$GPGGA,193617.000,5103.9126,N,11405.2986,W,1,06,1.36,1078.9,M,-17.5,M,,*61
$GPGSA,A,3,31,26,16,22,03,23,,,,,,,1.67,1.36,0.97*0B
$GPGSV,3,1,11,03,68,216,16,23,55,285,14,22,53,184,13,26,42,116,21*71
$GPGSV,3,2,11,31,39,058,33,48,28,203,,16,26,147,18,14,20,093,19*77
$GPGSV,3,3,11,06,17,319,14,09,16,282,16,29,02,052,*48
$GPRMC,193617.000,A,5103.9126,N,11405.2986,W,4.12,81.38,160217,,,A*4E
$GPZDA,193617.000,16,02,2017,,*5C
$GPGGA,193618.000,5103.9132,N,11405.2988,W,1,06,1.36,1078.9,M,-17.5,M,,*65
$GPGSA,A,3,31,26,16,22,03,23,,,,,,,1.67,1.36,0.97*0B
$GPRMC,193618.000,A,5103.9132,N,11405.2988,W,4.51,74.56,160217,,,A*4F
$GPZDA,193618.000,16,02,2017,,*53
$GPGGA,193619.000,5103.9139,N,11405.2985,W,1,06,1.36,1078.9,M,-17.5,M,,*62
$GPGSA,A,3,31,26,16,22,03,23,,,,,,,1.67,1.36,0.97*0B
$GPRMC,193619.000,A,5103.9139,N,11405.2985,W,3.81,75.34,160217,,,A*47
$GPZDA,193619.000,16,02,2017,,*52
$GPGGA,193620.000,5103.9143,N,11405.2996,W,1,06,1.36,1078.9,M,-17.5,M,,*67
$GPGSA,A,3,31,26,16,22,03,23,,,,,,,1.67,1.36,0.97*0B
$GPRMC,193620.000,A,5103.9143,N,11405.2996,W,2.69,62.92,160217,,,A*4F
$GPZDA,193620.000,16,02,2017,,*58
$GPGGA,193621.000,5103.9140,N,11405.3003,W,1,06,1.36,1078.9,M,-17.5,M,,*61
$GPGSA,A,3,31,26,16,22,03,23,,,,,,,1.67,1.36,0.97*0B
$GPRMC,193621.000,A,5103.9140,N,11405.3003,W,1.83,76.65,160217,,,A*43
$GPZDA,193621.000,16,02,2017,,*59
$GPGGA,193622.000,5103.9139,N,11405.3006,W,1,06,1.36,1078.9,M,-17.5,M,,*69
$GPGSA,A,3,31,26,16,22,03,23,,,,,,,1.67,1.36,0.97*0B
$GPGSV,3,1,11,03,67,216,16,23,55,285,13,22,53,184,16,26,42,116,25*78
$GPGSV,3,2,11,31,39,058,36,48,28,203,,16,26,147,19,14,20,093,27*7E
$GPGSV,3,3,11,06,17,319,15,09,16,282,19,29,02,052,*46
$GPRMC,193622.000,A,5103.9139,N,11405.3006,W,1.73,84.46,160217,,,A*48
$GPZDA,193622.000,16,02,2017,,*5A
$GPGGA,193623.000,5103.9142,N,11405.3003,W,1,06,1.36,1078.9,M,-17.5,M,,*61
$GPGSA,A,3,31,26,16,22,03,23,,,,,,,1.67,1.36,0.97*0B
$GPRMC,193623.000,A,5103.9142,N,11405.3003,W,1.60,101.97,160217,,,A*72
$GPZDA,193623.000,16,02,2017,,*5B
$GPGGA,193624.000,5103.9136,N,11405.2998,W,1,06,1.36,1079.0,M,-17.5,M,,*67
$GPGSA,A,3,31,26,16,22,03,23,,,,,,,1.67,1.36,0.97*0B
$GPRMC,193624.000,A,5103.9136,N,11405.2998,W,2.52,119.72,160217,,,A*7C
$GPZDA,193624.000,16,02,2017,,*5C
$GPGGA,193625.000,5103.9113,N,11405.2992,W,1,06,1.36,1078.8,M,-17.5,M,,*62
$GPGSA,A,3,31,26,16,22,03,23,,,,,,,1.67,1.36,0.97*0B
$GPRMC,193625.000,A,5103.9113,N,11405.2992,W,2.71,133.67,160217,,,A*7D
$GPZDA,193625.000,16,02,2017,,*5D
$GPGGA,193626.000,5103.9111,N,11405.3016,W,1,06,1.36,1078.5,M,-17.5,M,,*6A
$GPGSA,A,3,31,26,16,22,03,23,,,,,,,1.67,1.36,0.97*0B
$GPRMC,193626.000,A,5103.9111,N,11405.3016,W,2.83,130.44,160217,,,A*77
$GPZDA,193626.000,16,02,2017,,*5E
$GPGGA,193627.000,5103.9108,N,11405.3017,W,1,06,1.36,1078.4,M,-17.5,M,,*63
$GPGSA,A,3,31,26,16,22,03,23,,,,,,,1.67,1.36,0.97*0B
$GPGSV,3,1,11,03,67,216,20,23,55,285,16,22,53,184,17,26,42,116,31*7C
$GPGSV,3,2,11,31,39,058,24,51,31,171,,16,26,147,20,14,20,093,28*7E
$GPGSV,3,3,11,06,17,319,14,09,16,282,18,29,02,052,*46
$GPRMC,193627.000,A,5103.9108,N,11405.3017,W,2.89,130.36,160217,,,A*70
$GPZDA,193627.000,16,02,2017,,*5F
$GPGGA,193628.000,5103.9105,N,11405.3016,W,1,06,1.36,1078.4,M,-17.5,M,,*60
$GPGSA,A,3,31,26,16,22,03,23,,,,,,,1.67,1.36,0.97*0B
$GPRMC,193628.000,A,5103.9105,N,11405.3016,W,2.33,127.44,160217,,,A*71
$GPZDA,193628.000,16,02,2017,,*50
$GPGGA,193629.000,5103.9103,N,11405.3011,W,1,06,1.36,1078.3,M,-17.5,M,,*67
$GPGSA,A,3,31,26,16,22,03,23,,,,,,,1.67,1.36,0.97*0B
$GPRMC,193629.000,A,5103.9103,N,11405.3011,W,2.17,112.11,160217,,,A*71
$GPZDA,193629.000,16,02,2017,,*51
$GPGGA,193630.000,5103.9102,N,11405.3004,W,1,06,1.36,1078.4,M,-17.5,M,,*6D
$GPGSA,A,3,31,26,16,22,03,23,,,,,,,1.67,1.36,0.97*0B
$GPRMC,193630.000,A,5103.9102,N,11405.3004,W,1.88,113.25,160217,,,A*7F
$GPZDA,193630.000,16,02,2017,,*59
$GPGGA,193631.000,5103.9100,N,11405.2993,W,1,06,1.36,1078.4,M,-17.5,M,,*68
$GPGSA,A,3,31,26,16,22,03,23,,,,,,,1.67,1.36,0.97*0B
$GPRMC,193631.000,A,5103.9100,N,11405.2993,W,1.68,116.92,160217,,,A*7D
$GPZDA,193631.000,16,02,2017,,*58
$GPGGA,193632.000,5103.9103,N,11405.2996,W,1,06,1.36,1078.5,M,-17.5,M,,*6C
$GPGSA,A,3,31,26,16,22,03,23,,,,,,,1.67,1.36,0.97*0B
$GPGSV,3,1,11,03,67,216,18,23,55,285,16,22,53,184,17,26,42,116,18*7C
$GPGSV,3,2,11,31,39,058,23,51,31,171,30,16,26,147,22,14,20,094,21*76
$GPGSV,3,3,11,06,17,319,17,09,16,282,17,29,02,052,*4A
$GPRMC,193632.000,A,5103.9103,N,11405.2996,W,0.94,122.82,160217,,,A*7C
$GPZDA,193632.000,16,02,2017,,*5B
$GPGGA,193633.000,5103.9103,N,11405.3001,W,1,06,1.36,1078.6,M,-17.5,M,,*68
$GPGSA,A,3,31,26,16,22,03,23,,,,,,,1.67,1.36,0.97*0B
$GPRMC,193633.000,A,5103.9103,N,11405.3001,W,0.72,152.42,160217,,,A*78
$GPZDA,193633.000,16,02,2017,,*5A
$GPGGA,193634.000,5103.9107,N,11405.3005,W,1,06,1.36,1078.6,M,-17.5,M,,*6F
$GPGSA,A,3,31,26,16,22,03,23,,,,,,,1.67,1.36,0.97*0B
$GPRMC,193634.000,A,5103.9107,N,11405.3005,W,0.48,133.48,160217,,,A*7B
$GPZDA,193634.000,16,02,2017,,*5D
$GPGGA,193635.000,5103.9109,N,11405.3014,W,1,06,1.36,1078.7,M,-17.5,M,,*61
$GPGSA,A,3,31,26,16,22,03,23,,,,,,,1.67,1.36,0.97*0B
$GPRMC,193635.000,A,5103.9109,N,11405.3014,W,0.68,149.70,160217,,,A*70
$GPZDA,193635.000,16,02,2017,,*5C
$GPGGA,193636.000,5103.9110,N,11405.3022,W,1,06,1.36,1078.7,M,-17.5,M,,*6F
$GPGSA,A,3,31,26,16,22,03,23,,,,,,,1.67,1.36,0.97*0B
$GPRMC,193636.000,A,5103.9110,N,11405.3022,W,0.63,220.10,160217,,,A*7F
$GPZDA,193636.000,16,02,2017,,*5F
$GPGGA,193637.000,5103.9109,N,11405.3029,W,1,06,1.36,1078.7,M,-17.5,M,,*6D
$GPGSA,A,3,31,26,16,22,03,23,,,,,,,1.67,1.36,0.97*0B
$GPGSV,3,1,11,03,67,216,16,23,55,285,16,22,53,184,16,26,42,116,25*7D
$GPGSV,3,2,11,31,39,058,20,51,31,171,,16,26,147,23,14,20,094,29*7F
$GPGSV,3,3,11,06,17,319,16,09,16,282,17,29,02,052,*4B
$GPRMC,193637.000,A,5103.9109,N,11405.3029,W,0.77,221.19,160217,,,A*70
$GPZDA,193637.000,16,02,2017,,*5E
$GPGGA,193638.000,5103.9110,N,11405.3028,W,1,06,1.36,1078.8,M,-17.5,M,,*64
$GPGSA,A,3,31,26,16,22,03,23,,,,,,,1.67,1.36,0.97*0B
$GPRMC,193638.000,A,5103.9110,N,11405.3028,W,0.43,189.33,160217,,,A*78
$GPZDA,193638.000,16,02,2017,,*51
$GPGGA,193639.000,5103.9107,N,11405.3030,W,1,06,1.36,1078.8,M,-17.5,M,,*6A
$GPGSA,A,3,31,26,16,22,03,23,,,,,,,1.67,1.36,0.97*0B
$GPRMC,193639.000,A,5103.9107,N,11405.3030,W,0.62,168.99,160217,,,A*7A
$GPZDA,193639.000,16,02,2017,,*50
$GPGGA,193640.000,5103.9105,N,11405.3029,W,1,06,1.36,1078.8,M,-17.5,M,,*6E
$GPGSA,A,3,31,26,16,22,03,23,,,,,,,1.67,1.36,0.97*0B
$GPRMC,193640.000,A,5103.9105,N,11405.3029,W,0.57,149.33,160217,,,A*7B
$GPZDA,193640.000,16,02,2017,,*5E
$GPGGA,193641.000,5103.9105,N,11405.3028,W,1,06,1.36,1078.8,M,-17.5,M,,*6E
$GPGSA,A,3,31,26,16,22,03,23,,,,,,,1.67,1.36,0.97*0B
$GPRMC,193641.000,A,5103.9105,N,11405.3028,W,0.92,115.30,160217,,,A*78
$GPZDA,193641.000,16,02,2017,,*5F
$GPGGA,193642.000,5103.9105,N,11405.3023,W,1,06,1.36,1078.9,M,-17.5,M,,*67
$GPGSA,A,3,31,26,16,22,03,23,,,,,,,1.67,1.36,0.97*0B
$GPGSV,3,1,11,03,67,216,16,23,56,285,16,22,53,184,14,26,42,116,22*7B
$GPGSV,3,2,11,31,39,058,19,51,31,171,,16,26,147,21,14,20,094,27*79
$GPGSV,3,3,11,06,17,319,17,09,16,282,17,29,02,052,*4A
$GPRMC,193642.000,A,5103.9105,N,11405.3023,W,1.36,111.30,160217,,,A*7B
$GPZDA,193642.000,16,02,2017,,*5C
$GPGGA,193643.000,5103.9108,N,11405.3024,W,1,06,1.36,1078.9,M,-17.5,M,,*6C
$GPGSA,A,3,31,26,16,22,03,23,,,,,,,1.67,1.36,0.97*0B
$GPRMC,193643.000,A,5103.9108,N,11405.3024,W,1.49,100.23,160217,,,A*7A
$GPZDA,193643.000,16,02,2017,,*5D
$GPGGA,193644.000,5103.9107,N,11405.3030,W,1,06,1.36,1078.9,M,-17.5,M,,*61
$GPGSA,A,3,31,26,16,22,03,23,,,,,,,1.67,1.36,0.97*0B
$GPRMC,193644.000,A,5103.9107,N,11405.3030,W,0.53,90.50,160217,,,A*41
$GPZDA,193644.000,16,02,2017,,*5A
$GPGGA,193645.000,5103.9105,N,11405.3034,W,1,06,1.36,1078.9,M,-17.5,M,,*66
$GPGSA,A,3,31,26,16,22,03,23,,,,,,,1.67,1.36,0.97*0B
$GPRMC,193645.000,A,5103.9105,N,11405.3034,W,0.03,302.75,160217,,,A*7C
$GPZDA,193645.000,16,02,2017,,*5B
$GPGGA,193646.000,5103.9106,N,11405.3039,W,1,06,1.36,1078.9,M,-17.5,M,,*6B
$GPGSA,A,3,31,26,16,22,03,23,,,,,,,1.67,1.36,0.97*0B
$GPRMC,193646.000,A,5103.9106,N,11405.3039,W,0.47,283.11,160217,,,A*7B
$GPZDA,193646.000,16,02,2017,,*58
$GPGGA,193647.000,5103.9105,N,11405.3046,W,1,06,1.36,1078.9,M,-17.5,M,,*61
$GPGSA,A,3,31,26,16,22,03,23,,,,,,,1.67,1.36,0.97*0B
$GPGSV,3,1,10,03,67,216,13,23,56,285,15,22,53,184,12,26,42,116,14*7F
$GPGSV,3,2,10,31,39,058,16,16,26,147,14,14,20,094,17,06,17,319,14*7D
$GPGSV,3,3,10,09,16,282,14,29,02,052,*75
$GPRMC,193647.000,A,5103.9105,N,11405.3046,W,0.99,276.12,160217,,,A*7B
$GPZDA,193647.000,16,02,2017,,*59
$GPGGA,193648.000,5103.9105,N,11405.3051,W,1,06,1.36,1078.9,M,-17.5,M,,*68
$GPGSA,A,3,31,26,16,22,03,23,,,,,,,1.67,1.36,0.97*0B
$GPRMC,193648.000,A,5103.9105,N,11405.3051,W,1.17,275.01,160217,,,A*74
$GPZDA,193648.000,16,02,2017,,*56
$GPGGA,193649.000,5103.9104,N,11405.3043,W,1,06,1.36,1078.9,M,-17.5,M,,*6B
$GPGSA,A,3,31,26,16,22,03,23,,,,,,,1.67,1.36,0.97*0B
$GPRMC,193649.000,A,5103.9104,N,11405.3043,W,1.18,274.85,160217,,,A*75
$GPZDA,193649.000,16,02,2017,,*57
$GPGGA,193650.000,5103.9104,N,11405.3048,W,1,06,1.36,1078.9,M,-17.5,M,,*68
$GPGSA,A,3,31,26,16,22,03,23,,,,,,,1.67,1.36,0.97*0B
$GPRMC,193650.000,A,5103.9104,N,11405.3048,W,1.23,274.09,160217,,,A*7A
$GPZDA,193650.000,16,02,2017,,*5F
$GPGGA,193651.000,5103.9104,N,11405.3053,W,1,06,1.36,1078.9,M,-17.5,M,,*63
$GPGSA,A,3,31,26,16,22,03,23,,,,,,,1.67,1.36,0.97*0B
$GPRMC,193651.000,A,5103.9104,N,11405.3053,W,1.18,273.35,160217,,,A*71
$GPZDA,193651.000,16,02,2017,,*5E
$GPGGA,193652.000,5103.9104,N,11405.3056,W,1,06,1.36,1078.9,M,-17.5,M,,*65
$GPGSA,A,3,31,26,16,22,03,23,,,,,,,1.67,1.36,0.97*0B
$GPGSV,3,1,10,03,67,216,17,23,56,285,17,22,53,184,14,26,42,116,15*7E
$GPGSV,3,2,10,31,39,058,14,16,26,147,14,14,20,094,14,06,17,319,15*7D
$GPGSV,3,3,10,09,16,282,14,29,02,052,*75
$GPRMC,193652.000,A,5103.9104,N,11405.3056,W,1.18,272.04,160217,,,A*74
$GPZDA,193652.000,16,02,2017,,*5D
$GPGGA,193653.000,5103.9104,N,11405.3059,W,1,06,1.36,1078.9,M,-17.5,M,,*6B
$GPGSA,A,3,31,26,16,22,03,23,,,,,,,1.67,1.36,0.97*0B
$GPRMC,193653.000,A,5103.9104,N,11405.3059,W,1.03,269.82,160217,,,A*74
$GPZDA,193653.000,16,02,2017,,*5C
$GPGGA,193654.000,5103.9097,N,11405.3065,W,1,06,1.36,1078.9,M,-17.5,M,,*68
$GPGSA,A,3,31,26,16,22,03,23,,,,,,,1.67,1.36,0.97*0B
$GPRMC,193654.000,A,5103.9097,N,11405.3065,W,1.00,246.74,160217,,,A*70
$GPZDA,193654.000,16,02,2017,,*5B
$GPGGA,193655.000,5103.9093,N,11405.3079,W,1,06,1.36,1078.9,M,-17.5,M,,*60
$GPGSA,A,3,31,26,16,22,03,23,,,,,,,1.67,1.36,0.97*0B
$GPRMC,193655.000,A,5103.9093,N,11405.3079,W,0.98,239.29,160217,,,A*78
$GPZDA,193655.000,16,02,2017,,*5A
$GPGGA,193656.000,5103.9088,N,11405.3091,W,1,06,1.36,1079.0,M,-17.5,M,,*67
$GPGSA,A,3,31,26,16,22,03,23,,,,,,,1.67,1.36,0.97*0B
$GPRMC,193656.000,A,5103.9088,N,11405.3091,W,1.06,229.88,160217,,,A*7B
$GPZDA,193656.000,16,02,2017,,*59
$GPGGA,193657.000,5103.9088,N,11405.3104,W,1,06,1.36,1079.0,M,-17.5,M,,*6B
$GPGSA,A,3,31,26,16,22,03,23,,,,,,,1.67,1.36,0.97*0B
$GPGSV,3,1,10,03,67,215,16,23,56,285,19,22,53,184,12,26,42,116,13*72
$GPGSV,3,2,10,31,39,058,17,16,26,147,13,14,20,094,15,06,17,319,16*7B
$GPGSV,3,3,10,09,16,282,16,29,02,052,*77
$GPRMC,193657.000,A,5103.9088,N,11405.3104,W,0.81,231.28,160217,,,A*7A
$GPZDA,193657.000,16,02,2017,,*58
$GPGGA,193658.000,5103.9087,N,11405.3116,W,1,06,1.36,1079.0,M,-17.5,M,,*68
$GPGSA,A,3,31,26,16,22,03,23,,,,,,,1.67,1.36,0.97*0B
$GPRMC,193658.000,A,5103.9087,N,11405.3116,W,0.73,236.34,160217,,,A*7E
$GPZDA,193658.000,16,02,2017,,*57
$GPGGA,193659.000,5103.9085,N,11405.3125,W,1,06,1.36,1079.0,M,-17.5,M,,*6B
$GPGSA,A,3,31,26,16,22,03,23,,,,,,,1.67,1.36,0.97*0B
$GPRMC,193659.000,A,5103.9085,N,11405.3125,W,0.74,240.81,160217,,,A*75
$GPZDA,193659.000,16,02,2017,,*56
$GPGGA,193700.000,5103.9078,N,11405.3136,W,1,06,1.36,1079.0,M,-17.5,M,,*66
$GPGSA,A,3,31,26,16,22,03,23,,,,,,,1.67,1.36,0.97*0B
$GPRMC,193700.000,A,5103.9078,N,11405.3136,W,0.77,226.02,160217,,,A*70
$GPZDA,193700.000,16,02,2017,,*5B
$GPGGA,193701.000,5103.9079,N,11405.3152,W,1,06,1.36,1079.0,M,-17.5,M,,*64
$GPGSA,A,3,31,26,16,22,03,23,,,,,,,1.67,1.36,0.97*0B
$GPRMC,193701.000,A,5103.9079,N,11405.3152,W,0.68,246.88,160217,,,A*78
$GPZDA,193701.000,16,02,2017,,*5A
$GPGGA,193702.000,5103.9091,N,11405.3171,W,1,06,1.36,1079.0,M,-17.5,M,,*60
$GPGSA,A,3,31,26,16,22,03,23,,,,,,,1.67,1.36,0.97*0B
$GPGSV,3,1,10,03,67,215,18,23,56,285,22,22,53,184,15,26,42,116,14*74
$GPGSV,3,2,10,31,39,058,17,16,26,147,13,14,20,094,15,06,17,318,16*7A
$GPGSV,3,3,10,09,17,282,16,29,02,052,*76
$GPRMC,193702.000,A,5103.9091,N,11405.3171,W,0.69,292.12,160217,,,A*77
$GPZDA,193702.000,16,02,2017,,*59
$GPGGA,193703.000,5103.9093,N,11405.3177,W,1,06,1.36,1079.0,M,-17.5,M,,*65
$GPGSA,A,3,31,26,16,22,03,23,,,,,,,1.67,1.36,0.97*0B
$GPRMC,193703.000,A,5103.9093,N,11405.3177,W,0.55,304.89,160217,,,A*71
$GPZDA,193703.000,16,02,2017,,*58
$GPGGA,193704.000,5103.9093,N,11405.3180,W,1,06,1.36,1079.0,M,-17.5,M,,*6A
$GPGSA,A,3,31,26,16,22,03,23,,,,,,,1.67,1.36,0.97*0B
$GPRMC,193704.000,A,5103.9093,N,11405.3180,W,0.31,298.58,160217,,,A*74
$GPZDA,193704.000,16,02,2017,,*5F
$GPGGA,193705.000,5103.9087,N,11405.3188,W,1,06,1.36,1078.6,M,-17.5,M,,*61
$GPGSA,A,3,31,26,16,22,03,23,,,,,,,1.67,1.36,0.97*0B
$GPRMC,193705.000,A,5103.9087,N,11405.3188,W,0.51,292.08,160217,,,A*71
$GPZDA,193705.000,16,02,2017,,*5E
$GPGGA,193706.000,5103.9087,N,11405.3202,W,1,06,1.36,1077.8,M,-17.5,M,,*62
$GPGSA,A,3,31,26,16,22,03,23,,,,,,,1.67,1.36,0.97*0B
$GPRMC,193706.000,A,5103.9087,N,11405.3202,W,1.30,296.98,160217,,,A*78
$GPZDA,193706.000,16,02,2017,,*5D
$GPGGA,193707.000,5103.9090,N,11405.3241,W,1,06,1.36,1077.8,M,-17.5,M,,*62
$GPGSA,A,3,31,26,16,22,03,23,,,,,,,1.67,1.36,0.97*0B
$GPGSV,3,1,10,03,67,215,22,23,56,285,21,22,53,184,12,26,42,116,12*7F
$GPGSV,3,2,10,31,39,058,18,16,26,147,16,14,19,094,15,06,17,318,18*74
$GPGSV,3,3,10,09,17,282,15,29,02,052,*75
$GPRMC,193707.000,A,5103.9090,N,11405.3241,W,1.75,301.38,160217,,,A*7C
$GPZDA,193707.000,16,02,2017,,*5C
$GPGGA,193708.000,5103.9091,N,11405.3273,W,1,06,1.36,1077.8,M,-17.5,M,,*6D
$GPGSA,A,3,31,26,16,22,03,23,,,,,,,1.67,1.36,0.97*0B
$GPRMC,193708.000,A,5103.9091,N,11405.3273,W,1.84,301.90,160217,,,A*7F
$GPZDA,193708.000,16,02,2017,,*53
$GPGGA,193709.000,5103.9089,N,11405.3301,W,1,06,1.36,1077.8,M,-17.5,M,,*61
$GPGSA,A,3,31,26,16,22,03,23,,,,,,,1.67,1.36,0.97*0B
$GPRMC,193709.000,A,5103.9089,N,11405.3301,W,1.73,296.66,160217,,,A*7D
$GPZDA,193709.000,16,02,2017,,*52
$GPGGA,193710.000,5103.9084,N,11405.3328,W,1,06,1.36,1077.8,M,-17.5,M,,*6F
$GPGSA,A,3,31,26,16,22,03,23,,,,,,,1.67,1.36,0.97*0B
$GPRMC,193710.000,A,5103.9084,N,11405.3328,W,1.41,286.72,160217,,,A*76
$GPZDA,193710.000,16,02,2017,,*5A
$GPGGA,193711.000,5103.9079,N,11405.3353,W,1,06,1.36,1077.8,M,-17.5,M,,*60
$GPGSA,A,3,31,26,16,22,03,23,,,,,,,1.67,1.36,0.97*0B
$GPRMC,193711.000,A,5103.9079,N,11405.3353,W,1.21,274.14,160217,,,A*72
$GPZDA,193711.000,16,02,2017,,*5B
$GPGGA,193712.000,5103.9080,N,11405.3362,W,1,06,1.36,1077.8,M,-17.5,M,,*67
$GPGSA,A,3,31,26,16,22,03,23,,,,,,,1.67,1.36,0.97*0B
$GPGSV,3,1,10,03,67,215,19,23,56,285,21,22,53,184,11,26,42,116,11*77
$GPGSV,3,2,10,31,39,058,18,16,26,147,13,14,19,094,15,06,17,318,15*7C
$GPGSV,3,3,10,09,17,282,16,29,02,052,*76
$GPRMC,193712.000,A,5103.9080,N,11405.3362,W,1.08,270.27,160217,,,A*7A
$GPZDA,193712.000,16,02,2017,,*58
$GPGGA,193713.000,5103.9081,N,11405.3366,W,1,06,1.36,1077.8,M,-17.5,M,,*63
$GPGSA,A,3,31,26,16,22,03,23,,,,,,,1.67,1.36,0.97*0B
$GPRMC,193713.000,A,5103.9081,N,11405.3366,W,0.95,278.42,160217,,,A*70
$GPZDA,193713.000,16,02,2017,,*59
$GPGGA,193714.000,5103.9083,N,11405.3371,W,1,06,1.36,1077.9,M,-17.5,M,,*61
$GPGSA,A,3,31,26,16,22,03,23,,,,,,,1.67,1.36,0.97*0B
$GPRMC,193714.000,A,5103.9083,N,11405.3371,W,1.05,289.06,160217,,,A*75
$GPZDA,193714.000,16,02,2017,,*5E
$GPGGA,193715.000,5103.9082,N,11405.3382,W,1,06,1.36,1077.8,M,-17.5,M,,*6C
$GPGSA,A,3,31,26,16,22,03,23,,,,,,,1.67,1.36,0.97*0B
$GPRMC,193715.000,A,5103.9082,N,11405.3382,W,1.00,279.29,160217,,,A*7E
$GPZDA,193715.000,16,02,2017,,*5F
$GPGGA,193716.000,5103.9082,N,11405.3387,W,1,06,1.36,1077.8,M,-17.5,M,,*6A
$GPGSA,A,3,31,26,16,22,03,23,,,,,,,1.67,1.36,0.97*0B
$GPRMC,193716.000,A,5103.9082,N,11405.3387,W,0.76,275.27,160217,,,A*7A
$GPZDA,193716.000,16,02,2017,,*5C
$GPGGA,193717.000,5103.9079,N,11405.3389,W,1,06,1.36,1077.9,M,-17.5,M,,*60
$GPGSA,A,3,31,26,16,22,03,23,,,,,,,1.67,1.36,0.97*0B
$GPGSV,3,1,10,03,67,215,17,23,56,285,15,22,52,184,14,26,42,116,12*79
$GPGSV,3,2,10,31,39,058,15,16,26,147,12,14,19,094,14,06,17,318,14*70
$GPGSV,3,3,10,09,17,282,15,29,02,052,*75
$GPRMC,193717.000,A,5103.9079,N,11405.3389,W,0.62,257.83,160217,,,A*7A
$GPZDA,193717.000,16,02,2017,,*5D
$GPGGA,193718.000,5103.9082,N,11405.3398,W,1,06,1.36,1077.9,M,-17.5,M,,*6B
$GPGSA,A,3,31,26,16,22,03,23,,,,,,,1.67,1.36,0.97*0B
$GPRMC,193718.000,A,5103.9082,N,11405.3398,W,1.01,272.98,160217,,,A*78
$GPZDA,193718.000,16,02,2017,,*52
$GPGGA,193719.000,5103.9086,N,11405.3411,W,1,06,1.36,1077.9,M,-17.5,M,,*68
$GPGSA,A,3,31,26,16,22,03,23,,,,,,,1.67,1.36,0.97*0B
$GPRMC,193719.000,A,5103.9086,N,11405.3411,W,1.43,283.86,160217,,,A*7C
$GPZDA,193719.000,16,02,2017,,*53
$GPGGA,193720.000,5103.9093,N,11405.3429,W,1,06,1.36,1077.9,M,-17.5,M,,*6D
$GPGSA,A,3,31,26,16,22,03,23,,,,,,,1.67,1.36,0.97*0B
$GPRMC,193720.000,A,5103.9093,N,11405.3429,W,2.04,289.43,160217,,,A*7A
$GPZDA,193720.000,16,02,2017,,*59
$GPGGA,193721.000,5103.9101,N,11405.3450,W,1,06,1.36,1077.9,M,-17.5,M,,*68
$GPGSA,A,3,31,26,16,22,03,23,,,,,,,1.67,1.36,0.97*0B
$GPRMC,193721.000,A,5103.9101,N,11405.3450,W,2.57,291.66,160217,,,A*77
$GPZDA,193721.000,16,02,2017,,*58
$GPGGA,193722.000,5103.9106,N,11405.3468,W,1,06,1.36,1078.0,M,-17.5,M,,*61
$GPGSA,A,3,31,26,16,22,03,23,,,,,,,1.67,1.36,0.97*0B
$GPGSV,3,1,10,03,67,215,14,23,56,285,20,22,52,184,15,26,42,116,15*7A
$GPGSV,3,2,10,31,39,058,15,16,26,147,10,14,19,094,14,06,17,318,15*73
$GPGSV,3,3,10,09,17,282,16,29,02,052,*76
$GPRMC,193722.000,A,5103.9106,N,11405.3468,W,2.79,292.11,160217,,,A*77
$GPZDA,193722.000,16,02,2017,,*5B
$GPGGA,193723.000,5103.9108,N,11405.3481,W,1,06,1.36,1078.0,M,-17.5,M,,*69
$GPGSA,A,3,31,26,16,22,03,23,,,,,,,1.67,1.36,0.97*0B
$GPRMC,193723.000,A,5103.9108,N,11405.3481,W,2.84,291.07,160217,,,A*79
$GPZDA,193723.000,16,02,2017,,*5A
$GPGGA,193724.000,5103.9110,N,11405.3498,W,1,06,1.36,1078.0,M,-17.5,M,,*6F
$GPGSA,A,3,31,26,16,22,03,23,,,,,,,1.67,1.36,0.97*0B
$GPRMC,193724.000,A,5103.9110,N,11405.3498,W,2.97,290.24,160217,,,A*7D
$GPZDA,193724.000,16,02,2017,,*5D
$GPGGA,193725.000,5103.9111,N,11405.3513,W,1,06,1.36,1078.0,M,-17.5,M,,*6D
$GPGSA,A,3,31,26,16,22,03,23,,,,,,,1.67,1.36,0.97*0B
$GPRMC,193725.000,A,5103.9111,N,11405.3513,W,2.96,288.74,160217,,,A*72
$GPZDA,193725.000,16,02,2017,,*5C
$GPGGA,193726.000,5103.9092,N,11405.3513,W,1,06,1.36,1078.0,M,-17.5,M,,*64
$GPGSA,A,3,31,26,16,22,03,23,,,,,,,1.67,1.36,0.97*0B
$GPRMC,193726.000,A,5103.9092,N,11405.3513,W,2.24,264.13,160217,,,A*71
$GPZDA,193726.000,16,02,2017,,*5F
$GPGGA,193727.000,5103.9064,N,11405.3516,W,1,06,1.36,1078.1,M,-17.5,M,,*68
$GPGSA,A,3,31,26,16,22,03,23,,,,,,,1.67,1.36,0.97*0B
$GPGSV,3,1,10,03,67,215,16,23,56,285,17,22,52,184,18,26,42,116,14*70
$GPGSV,3,2,10,31,39,058,15,16,26,147,12,14,19,094,13,06,17,318,16*75
$GPGSV,3,3,10,09,17,282,13,29,02,052,*73
$GPRMC,193727.000,A,5103.9064,N,11405.3516,W,2.52,232.69,160217,,,A*73
$GPZDA,193727.000,16,02,2017,,*5E
$GPGGA,193728.000,5103.9034,N,11405.3542,W,1,06,1.36,1078.1,M,-17.5,M,,*63
$GPGSA,A,3,31,26,16,22,03,23,,,,,,,1.67,1.36,0.97*0B
$GPRMC,193728.000,A,5103.9034,N,11405.3542,W,3.82,219.65,160217,,,A*71
$GPZDA,193728.000,16,02,2017,,*51
$GPGGA,193729.000,5103.9019,N,11405.3553,W,1,06,1.36,1078.1,M,-17.5,M,,*6D
$GPGSA,A,3,31,26,16,22,03,23,,,,,,,1.67,1.36,0.97*0B
$GPRMC,193729.000,A,5103.9019,N,11405.3553,W,4.03,217.39,160217,,,A*76
$GPZDA,193729.000,16,02,2017,,*50
$GPGGA,193730.000,5103.9029,N,11405.3529,W,1,06,1.36,1078.1,M,-17.5,M,,*6B
$GPGSA,A,3,31,26,16,22,03,23,,,,,,,1.67,1.36,0.97*0B
$GPRMC,193730.000,A,5103.9029,N,11405.3529,W,2.68,210.54,160217,,,A*77
$GPZDA,193730.000,16,02,2017,,*58
$GPGGA,193731.000,5103.9030,N,11405.3518,W,1,06,1.36,1078.2,M,-17.5,M,,*63
$GPGSA,A,3,31,26,16,22,03,23,,,,,,,1.67,1.36,0.97*0B
$GPRMC,193731.000,A,5103.9030,N,11405.3518,W,2.08,205.78,160217,,,A*70
$GPZDA,193731.000,16,02,2017,,*59
$GPGGA,193732.000,5103.9029,N,11405.3513,W,1,06,1.36,1078.2,M,-17.5,M,,*63
$GPGSA,A,3,31,26,16,22,03,23,,,,,,,1.67,1.36,0.97*0B
$GPGSV,3,1,10,03,67,215,14,23,56,285,17,22,52,184,14,26,42,116,13*79
$GPGSV,3,2,10,31,39,058,15,16,26,147,13,14,19,094,14,06,17,318,15*70
$GPGSV,3,3,10,09,17,282,14,29,02,052,*74
$GPRMC,193732.000,A,5103.9029,N,11405.3513,W,1.70,203.21,160217,,,A*76
$GPZDA,193732.000,16,02,2017,,*5A
$GPGGA,193733.000,5103.9021,N,11405.3519,W,1,06,1.36,1078.2,M,-17.5,M,,*60
$GPGSA,A,3,31,26,16,22,03,23,,,,,,,1.67,1.36,0.97*0B
$GPRMC,193733.000,A,5103.9021,N,11405.3519,W,1.82,210.33,160217,,,A*79
$GPZDA,193733.000,16,02,2017,,*5B
$GPGGA,193734.000,5103.8956,N,11405.3522,W,1,06,1.36,1078.3,M,-17.5,M,,*66
$GPGSA,A,3,31,26,16,22,03,23,,,,,,,1.67,1.36,0.97*0B
$GPRMC,193734.000,A,5103.8956,N,11405.3522,W,4.61,193.75,160217,,,A*7C
$GPZDA,193734.000,16,02,2017,,*5C
$GPGGA,193735.000,5103.8936,N,11405.3528,W,1,06,1.36,1078.3,M,-17.5,M,,*6B
$GPGSA,A,3,31,26,16,22,03,23,,,,,,,1.67,1.36,0.97*0B
$GPRMC,193735.000,A,5103.8936,N,11405.3528,W,4.96,195.64,160217,,,A*7F
$GPZDA,193735.000,16,02,2017,,*5D
$GPGGA,193736.000,5103.8944,N,11405.3499,W,1,06,1.36,1078.3,M,-17.5,M,,*66
$GPGSA,A,3,31,26,16,22,03,23,,,,,,,1.67,1.36,0.97*0B
$GPRMC,193736.000,A,5103.8944,N,11405.3499,W,3.93,183.62,160217,,,A*71
$GPZDA,193736.000,16,02,2017,,*5E
$GPGGA,193737.000,5103.8942,N,11405.3486,W,1,06,1.36,1078.4,M,-17.5,M,,*68
$GPGSA,A,3,31,26,16,22,03,23,,,,,,,1.67,1.36,0.97*0B
$GPGSV,3,1,10,03,67,215,13,23,56,285,16,22,52,184,14,26,42,116,12*7E
$GPGSV,3,2,10,31,39,058,12,16,26,147,13,14,19,094,13,06,17,318,16*73
$GPGSV,3,3,10,09,17,282,14,29,02,052,*74
$GPRMC,193737.000,A,5103.8942,N,11405.3486,W,3.51,175.16,160217,,,A*7C
$GPZDA,193737.000,16,02,2017,,*5F
$GPGGA,193738.000,5103.8934,N,11405.3487,W,1,06,1.36,1078.4,M,-17.5,M,,*67
$GPGSA,A,3,31,26,16,22,03,23,,,,,,,1.67,1.36,0.97*0B
$GPRMC,193738.000,A,5103.8934,N,11405.3487,W,3.46,175.54,160217,,,A*73
$GPZDA,193738.000,16,02,2017,,*50
$GPGGA,193739.000,5103.8927,N,11405.3487,W,1,06,1.36,1078.5,M,-17.5,M,,*65
$GPGSA,A,3,31,26,16,22,03,23,,,,,,,1.67,1.36,0.97*0B
$GPRMC,193739.000,A,5103.8927,N,11405.3487,W,3.40,175.94,160217,,,A*7A
$GPZDA,193739.000,16,02,2017,,*51
$GPGGA,193740.000,5103.8921,N,11405.3488,W,1,06,1.36,1078.5,M,-17.5,M,,*62
$GPGSA,A,3,31,26,16,22,03,23,,,,,,,1.67,1.36,0.97*0B
$GPRMC,193740.000,A,5103.8921,N,11405.3488,W,3.32,176.37,160217,,,A*72
$GPZDA,193740.000,16,02,2017,,*5F
$GPGGA,193741.000,,,,,0,06,,,M,,M,,*77
$GPGSA,A,1,,,,,,,,,,,,,,,*1E
$GPRMC,193741.000,V,,,,,3.27,176.73,160217,,,N*45
$GPZDA,193741.000,16,02,2017,,*5E
$GPGGA,193742.000,,,,,0,05,,,M,,M,,*77
$GPGSA,A,1,,,,,,,,,,,,,,,*1E
$GPGSV,3,1,10,03,67,215,15,23,56,285,16,22,52,184,,26,42,116,11*7E
$GPGSV,3,2,10,31,39,058,15,16,26,147,12,14,19,094,,06,17,318,13*72
$GPGSV,3,3,10,09,17,282,14,29,02,052,*74
$GPRMC,193742.000,V,,,,,3.12,177.23,160217,,,N*44
$GPZDA,193742.000,16,02,2017,,*5D
$GPGGA,193743.000,,,,,0,05,,,M,,M,,*76
$GPGSA,A,1,,,,,,,,,,,,,,,*1E
$GPRMC,193743.000,V,,,,,1.29,200.52,160217,,,N*4A
$GPZDA,193743.000,16,02,2017,,*5C
$GPGGA,193744.000,,,,,0,05,,,M,,M,,*71
$GPGSA,A,1,,,,,,,,,,,,,,,*1E
$GPRMC,193744.000,V,,,,,0.95,282.30,160217,,,N*45
$GPZDA,193744.000,16,02,2017,,*5B
$GPGGA,193745.000,,,,,0,05,,,M,,M,,*70
$GPGSA,A,1,,,,,,,,,,,,,,,*1E
$GPRMC,193745.000,V,,,,,1.30,326.03,160217,,,N*45
$GPZDA,193745.000,16,02,2017,,*5A
$GPGGA,193746.000,5103.9036,N,11405.3481,W,1,05,1.46,1078.8,M,-17.5,M,,*6A
$GPGSA,A,3,31,26,16,03,23,,,,,,,,1.75,1.46,0.98*00
$GPRMC,193746.000,A,5103.9036,N,11405.3481,W,0.82,340.81,160217,,,A*71
$GPZDA,193746.000,16,02,2017,,*59
$GPGGA,193747.000,5103.9043,N,11405.3467,W,1,05,1.46,1078.9,M,-17.5,M,,*60
$GPGSA,A,3,31,26,16,03,23,,,,,,,,1.75,1.46,0.98*00
$GPGSV,3,1,10,03,67,215,13,23,56,285,18,22,52,184,,26,42,116,14*73
$GPGSV,3,2,10,31,39,058,16,16,26,147,13,14,19,094,,06,17,318,14*77
$GPGSV,3,3,10,09,17,282,17,29,02,052,*77
$GPRMC,193747.000,A,5103.9043,N,11405.3467,W,0.69,4.98,160217,,,A*74
$GPZDA,193747.000,16,02,2017,,*58
$GPGGA,193748.000,5103.9062,N,11405.3468,W,1,05,1.46,1078.9,M,-17.5,M,,*63
$GPGSA,A,3,31,26,16,03,23,,,,,,,,1.75,1.46,0.98*00
$GPRMC,193748.000,A,5103.9062,N,11405.3468,W,0.85,15.06,160217,,,A*42
$GPZDA,193748.000,16,02,2017,,*57
$GPGGA,193749.000,5103.9074,N,11405.3465,W,1,05,1.46,1079.0,M,-17.5,M,,*60
$GPGSA,A,3,31,26,16,03,23,,,,,,,,1.75,1.46,0.98*00
$GPRMC,193749.000,A,5103.9074,N,11405.3465,W,1.06,13.36,160217,,,A*46
$GPZDA,193749.000,16,02,2017,,*56
$GPGGA,193750.000,5103.9079,N,11405.3474,W,1,05,1.46,1079.0,M,-17.5,M,,*65
$GPGSA,A,3,31,26,16,03,23,,,,,,,,1.75,1.46,0.98*00
$GPRMC,193750.000,A,5103.9079,N,11405.3474,W,1.12,357.61,160217,,,A*77
$GPZDA,193750.000,16,02,2017,,*5E
$GPGGA,193751.000,5103.9085,N,11405.3482,W,1,05,1.46,1079.1,M,-17.5,M,,*6F
$GPGSA,A,3,31,26,16,03,23,,,,,,,,1.75,1.46,0.98*00
$GPRMC,193751.000,A,5103.9085,N,11405.3482,W,1.21,349.31,160217,,,A*76
$GPZDA,193751.000,16,02,2017,,*5F
$GPGGA,193752.000,5103.9090,N,11405.3489,W,1,05,1.46,1079.2,M,-17.5,M,,*60
$GPGSA,A,3,31,26,16,03,23,,,,,,,,1.75,1.46,0.98*00
$GPGSV,3,1,10,03,67,215,14,23,56,285,15,22,52,184,,26,42,116,14*79
$GPGSV,3,2,10,31,39,058,13,16,26,147,12,14,19,094,,06,17,318,15*72
$GPGSV,3,3,10,09,17,282,15,29,02,052,*75
$GPRMC,193752.000,A,5103.9090,N,11405.3489,W,1.32,342.15,160217,,,A*75
$GPZDA,193752.000,16,02,2017,,*5C
$GPGGA,193753.000,5103.9095,N,11405.3493,W,1,05,1.46,1079.2,M,-17.5,M,,*6F
$GPGSA,A,3,31,26,16,03,23,,,,,,,,1.75,1.46,0.98*00
$GPRMC,193753.000,A,5103.9095,N,11405.3493,W,1.44,336.36,160217,,,A*79
$GPZDA,193753.000,16,02,2017,,*5D
$GPGGA,193754.000,5103.9100,N,11405.3499,W,1,05,1.46,1079.3,M,-17.5,M,,*6E
$GPGSA,A,3,31,26,16,03,23,,,,,,,,1.75,1.46,0.98*00
$GPRMC,193754.000,A,5103.9100,N,11405.3499,W,1.62,329.82,160217,,,A*7C
$GPZDA,193754.000,16,02,2017,,*5A
